name,latitude,longitude
鳥取県,日野郡江府町
江尾,35.280534,133.499263
大河原,35.333410,133.540498
貝田,35.302854,133.509853
柿原,35.315679,133.488565
久連,35.293292,133.459453
小江尾,35.301238,133.495805
下蚊屋,35.291019,133.565859
佐川,35.301851,133.481560
下安井,35.267052,133.453300
洲河崎,35.273176,133.469803
杉谷,35.305612,133.527598
助澤,35.292148,133.545261
俣野,35.264603,133.533305
御机,35.331066,133.572678
宮市,35.290093,133.514488
美用,35.309417,133.544317
武庫,35.252607,133.483971
吉原,35.329071,133.516017
