name,latitude,longitude
福岡県,八女郡広川町
一條,33.244761,130.516567
太田,33.235079,130.541619
川上,33.236021,130.560195
小椎尾,33.270773,130.606806
長延,33.259434,130.570070
新代,33.247847,130.540095
久泉,33.244033,130.560071
日吉,33.255423,130.550256
広川,33.242664,130.531224
藤田,33.255727,130.525634
水原,33.253533,130.605286
吉常,33.249929,130.576775
六田,33.236476,130.568398
