name,latitude,longitude
福岡県,糟屋郡篠栗町
乙犬,33.615605,130.507212
尾仲,33.619326,130.515656
金出,33.632424,130.545538
篠栗,33.622748,130.568817
高田,33.636222,130.534888
田中,33.626718,130.518996
津波黒,33.630557,130.518992
内住,33.610407,130.586419
萩尾,33.653685,130.560375
若杉,33.607004,130.524221
和田,33.630377,130.503742
彩り台,33.633013,130.519637
中央,33.624581,130.525717
