name,latitude,longitude
岩手県,九戸郡洋野町
阿子木,40.270030,141.718804
有家,40.313113,141.739440
大野,40.297745,141.643903
小子内,40.331365,141.751752
上舘,40.339829,141.602408
帯島,40.251858,141.688388
種市,40.389840,141.679526
中野,40.293722,141.746047
水沢,40.238799,141.629590
