name,latitude,longitude
北海道,空知郡奈井江町
字上美唄,43.401282,141.846536
字上美唄原野,43.401039,141.855085
字キナウスナイ,43.418113,141.844206
字茶志内,43.396241,141.923941
字茶志内美唄,43.408444,141.896180
字チャシュナイ,43.409097,141.880847
字奈井江,43.442239,141.892642
字ナイエ川上流,43.412226,141.929016
字奈井江,43.423853,141.893400
字奈江原野,43.422293,141.870333
字東奈井江,43.421867,141.944924
字美唄及茶志内,43.398181,141.897488
