name,latitude,longitude
北海道,余市郡仁木町
旭台,43.159163,140.744937
大江,43.111147,140.731394
尾根内,43.035034,140.794702
北,43.166170,140.777163
北町十,43.165213,140.781576
銀山,43.054240,140.715416
然別,43.123921,140.699976
砥の川,43.146762,140.733342
長沢殖民地,43.063753,140.762654
長沢南,43.043838,140.756298
西,43.145777,140.752028
西町十,43.141466,140.749836
東,43.155791,140.786122
東町十,43.162411,140.783960
東町緑ケ丘,43.130741,140.811317
南,43.135515,140.771516
南町頂白,43.122335,140.779344
