name,latitude,longitude
北海道,石狩郡新篠津村
字袋達布,43.206845,141.635256
第三十五線南,43.183168,141.576386
第三十六線南,43.183505,141.581502
第三十七線南,43.184449,141.588422
第三十八線南,43.185400,141.595214
第三十九線南,43.186294,141.602016
第四十線南,43.185656,141.609135
第四十一線南,43.191995,141.615229
第四十二線南,43.196358,141.621540
第四十三線南,43.198648,141.627786
第四十四線南,43.195931,141.635200
第四十五線南,43.198798,141.642198
第四十六線南,43.205300,141.645616
第四十七線北,43.246848,141.648863
第四十八線北,43.244126,141.656398
