name,latitude,longitude
神奈川県,足柄上郡開成町
延沢,35.336532,139.119715
中之名,35.330617,139.119617
金井島,35.346260,139.115225
円通寺,35.333918,139.118250
岡野,35.342620,139.109692
牛島,35.327166,139.127223
みなみ,35.323335,139.131341
吉田島,35.334156,139.132763
宮台,35.324799,139.122855
