name,latitude,longitude
神奈川県,中郡大磯町
東小磯,35.313178,139.307282
東,35.314144,139.327498
石神台,35.309422,139.267562
国府新宿,35.303721,139.272493
高麗,35.323420,139.322022
大磯,35.313826,139.316566
西小磯,35.313038,139.298167
月京,35.312076,139.275514
国府本郷,35.309627,139.286900
寺坂,35.325942,139.287629
虫窪,35.320879,139.264589
生沢,35.319942,139.278874
黒岩,35.329389,139.262561
西久保,35.324357,139.255980
