name,latitude,longitude
宮崎県,小林市
駅南,31.990233,130.974406
北西方,32.034386,130.951656
堤,31.965429,131.004295
水流迫,31.989073,130.994892
東方,32.068876,130.975989
細野,31.961666,130.948774
真方,32.010577,130.983379
南西方,31.955589,130.896500
須木内山,32.007029,131.115218
須木下田,32.064943,131.114793
須木鳥田,32.109744,131.035439
須木中原,32.119692,131.113632
須木奈佐木,32.035823,131.060864
野尻町紙屋,31.966412,131.174869
野尻町東麓,31.961796,131.110097
野尻町三ケ野山,31.979945,131.056073
本,31.991878,130.976201
