name,latitude,longitude
鹿児島県,大島郡伊仙町
阿権,27.707231,128.924915
阿三,27.692125,128.929821
伊仙,27.679349,128.935759
糸木名,27.731593,128.930205
犬田布,27.716005,128.900795
面縄,27.689729,128.963292
喜念,27.694819,128.991219
木之香,27.711724,128.917255
検福,27.681256,128.949657
小島,27.744123,128.910579
崎原,27.727929,128.903339
佐弁,27.685412,128.985470
中山,27.713823,128.961385
馬根,27.709548,128.942800
古里,27.682286,128.953499
目手久,27.693149,128.975161
八重竿,27.727111,128.942944
