name,latitude,longitude
鹿児島県,出水郡長島町
浦底,32.203657,130.161927
川床,32.158902,130.179257
蔵之元,32.180072,130.117029
指江,32.161180,130.129229
獅子島,32.279931,130.237079
下山門野,32.117055,130.139959
城川内,32.136373,130.129653
諸浦,32.247740,130.171858
鷹巣,32.193570,130.183335
平尾,32.191230,130.138372
山門野,32.115599,130.164223
