name,latitude,longitude
鹿児島県,大島郡龍郷町
赤尾木,28.412793,129.629876
秋名,28.447043,129.558367
芦徳,28.422201,129.618798
安木屋場,28.475377,129.610007
幾里,28.446147,129.562921
浦,28.408747,129.586799
大勝,28.395060,129.582220
嘉渡,28.455561,129.568078
久場,28.433890,129.595939
瀬留,28.421967,129.591111
龍郷,28.451049,129.604350
戸口,28.367895,129.582020
中勝,28.384666,129.573245
屋入,28.414673,129.600858
