name,latitude,longitude
福島県,石川郡平田村
中倉,37.180119,140.523905
小平,37.180307,140.562532
駒形,37.177352,140.585745
北方,37.178380,140.596418
蓬田新田,37.260695,140.543927
下蓬田,37.235934,140.539728
上蓬田,37.248295,140.558782
九生滝,37.241224,140.590745
東山,37.204736,140.596762
永田,37.215370,140.578431
小松原,37.215207,140.563079
西山,37.205306,140.534278
鴇子,37.220188,140.595282
