name,latitude,longitude
福島県,大沼郡金山町
西谷,37.431588,139.508753
山入,37.361434,139.445975
越川,37.403324,139.492681
田沢,37.374971,139.384667
玉梨,37.407254,139.547490
八,37.428096,139.557842
中川,37.488017,139.522787
本名,37.467251,139.451534
大塩,37.426867,139.437058
滝沢,37.422471,139.406032
水沼,37.492971,139.574976
横田,37.384615,139.455424
小栗山,37.435321,139.532715
沼沢,37.441847,139.595215
太郎布,37.442642,139.561121
川口,37.452953,139.530724
大志,37.462841,139.533116
大栗山,37.464845,139.567392
