name,latitude,longitude
福島県,双葉郡大熊町
夫沢,37.414404,141.002975
熊,37.389841,140.991729
小入野,37.400215,141.005864
野上,37.407287,140.911520
小良浜,37.377504,141.022838
熊川,37.386380,141.024719
大川原,37.387418,140.928689
下野上,37.405289,140.974849
