name,latitude,longitude
福島県,大沼郡昭和村
大芦,37.258967,139.651527
下中津川,37.335920,139.606977
佐倉,37.324847,139.636946
小中津川,37.338660,139.639291
喰丸,37.324183,139.660348
小野川,37.328571,139.703368
野尻,37.355748,139.575687
両原,37.293034,139.707113
松山,37.377057,139.545726
