name,latitude,longitude
福島県,石川郡玉川村
南須釜,37.213402,140.498964
山新田,37.221572,140.489936
四辻新田,37.240828,140.500104
吉,37.202045,140.439480
川辺,37.192122,140.414600
蒜生,37.202806,140.412860
山小屋,37.216236,140.478862
北須釜,37.219208,140.452199
小高,37.211028,140.416685
中,37.219855,140.409671
岩法寺,37.232409,140.413854
竜崎,37.235509,140.398041
