name,latitude,longitude
東京都,羽村市
横田基地内,35.753690,139.338544
双葉,35.756531,139.334517
川崎,35.754934,139.317146
神明台,35.755493,139.330557
羽,35.758253,139.298892
玉川,35.753813,139.311416
小作台,35.773855,139.302013
五ノ神,35.760918,139.321163
富士見平,35.763536,139.326242
緑ヶ丘,35.765583,139.317743
羽中,35.764222,139.306887
栄,35.774489,139.313843
羽加美,35.766066,139.301089
