name,latitude,longitude
東京都,稲城市
大丸,35.644584,139.477742
百村,35.633563,139.498524
向陽台,35.640990,139.494548
平尾,35.607618,139.495439
東長沼,35.634766,139.504256
坂浜,35.624406,139.487984
矢野口,35.633860,139.514164
押立,35.647475,139.513451
若葉台,35.622238,139.474731
長峰,35.631883,139.487495
