name,latitude,longitude
兵庫県,丹波市
山南町阿草,35.066144,135.105147
山南町上滝,35.093190,135.108528
春日町国領,35.140807,135.125180
柏原町上小倉,35.120370,135.106264
山南町篠場,35.092443,135.083825
山南町青田,35.084934,135.087459
山南町下滝,35.092181,135.095580
山南町北太田,35.093677,135.067181
山南町大河,35.086993,135.059446
山南町畑内,35.089125,135.072406
山南町玉巻,35.093115,135.049770
山南町池谷,35.085154,135.055035
山南町金屋,35.092740,135.033461
山南町岩屋,35.094832,135.020148
春日町野上野,35.166267,135.133031
春日町棚原,35.151032,135.115661
氷上町大谷,35.173549,134.997829
氷上町油利,35.134806,134.997397
氷上町朝阪,35.120837,135.005178
氷上町小野,35.115261,134.993813
山南町草部,35.103411,135.004955
山南町前川,35.088933,134.992334
山南町和田,35.092142,134.980460
山南町小野尻,35.083168,134.955767
氷上町長野,35.168214,135.004604
氷上町新郷,35.152571,135.003266
春日町柚津,35.158475,135.143207
春日町鹿場,35.159050,135.155147
春日町下三井庄,35.158355,135.166887
市島町多利,35.177400,135.169128
春日町上三井庄,35.158960,135.188795
氷上町上成松,35.170243,135.027323
市島町中竹田,35.248660,135.122573
市島町上竹田,35.225464,135.116033
市島町矢代,35.225548,135.131907
市島町北岡本,35.218422,135.126787
市島町市島,35.210171,135.128171
市島町東勅使,35.199488,135.124297
市島町勅使,35.200039,135.117300
春日町池尾,35.192277,135.124784
市島町梶原,35.199501,135.133206
春日町多田,35.180204,135.112936
春日町多利,35.178957,135.141518
春日町七日市,35.169279,135.114309
春日町黒井,35.173418,135.099099
春日町朝日,35.165330,135.085239
春日町石才,35.166447,135.076654
春日町歌道谷,35.164881,135.072738
春日町野山,35.168039,135.063702
氷上町市辺,35.167526,135.050767
氷上町西中,35.169422,135.036229
氷上町柿柴,35.171941,135.017633
青垣町中佐治,35.262256,135.002466
青垣町市原,35.254521,134.984622
氷上町三原,35.163900,134.970552
氷上町上新庄,35.193621,135.004942
氷上町清住,35.201536,134.989630
氷上町井中,35.206296,135.022864
青垣町西芦田,35.227735,134.988513
青垣町小倉,35.241697,134.989530
青垣町佐治,35.242744,135.002500
市島町下竹田,35.245532,135.153141
青垣町沢野,35.249634,135.011001
青垣町奥塩久,35.258185,135.027831
青垣町口塩久,35.243698,135.024747
青垣町東芦田,35.245230,135.048730
市島町徳尾,35.242997,135.094515
青垣町山垣,35.276912,134.993905
青垣町稲土,35.268179,134.961880
青垣町文室,35.254657,134.965153
青垣町惣持,35.255996,134.953381
青垣町小稗,35.257136,134.938160
青垣町大稗,35.256535,134.921251
青垣町大名草,35.234484,134.935955
山南町太田,35.077926,135.069542
山南町大谷,35.077011,135.054923
山南町長野,35.081741,135.046651
山南町岡本,35.083192,135.042320
山南町井原,35.076634,135.009152
山南町村森,35.077256,135.018428
山南町山崎,35.075855,135.023846
山南町谷川,35.065541,135.053222
山南町小新屋,35.077762,134.977466
春日町栢野,35.140036,135.193558
春日町広瀬,35.137280,135.178180
春日町松森,35.136243,135.169700
春日町中山,35.136886,135.156267
春日町東中,35.134707,135.141715
春日町野瀬,35.146541,135.212736
山南町奥野々,35.105252,135.064002
柏原町下小倉,35.111182,135.081672
柏原町見長,35.128064,135.094921
柏原町北中,35.120825,135.076282
柏原町小南,35.127531,135.068569
柏原町東鴨野,35.134976,135.044857
柏原町石戸,35.111231,135.044495
氷上町福田,35.114813,135.019108
柏原町東奥,35.139046,135.093664
柏原町挙田,35.130084,135.054560
柏原町柏原,35.126571,135.081406
柏原町大新屋,35.130213,135.045239
柏原町南多田,35.141181,135.070213
柏原町北山,35.137961,135.043435
柏原町田路,35.142861,135.049111
柏原町母坪,35.149038,135.045673
柏原町鴨野,35.132510,135.037919
氷上町佐野,35.128587,135.020651
氷上町稲畑,35.139747,135.032050
氷上町谷村,35.142906,135.014888
春日町野村,35.156757,135.102755
春日町平松,35.161632,135.091133
春日町園部,35.165781,135.080536
氷上町北野,35.159084,135.066463
春日町坂,35.163283,135.068407
氷上町石生,35.150472,135.069344
氷上町大崎,35.159610,135.059104
氷上町横田,35.157397,135.052438
氷上町稲継,35.153684,135.039328
氷上町本郷,35.157880,135.042866
氷上町黒田,35.163341,135.028491
氷上町犬岡,35.164950,135.039150
山南町坂尻,35.122856,134.980076
山南町北和田,35.096099,134.989121
山南町応地,35.107995,134.984164
山南町山本,35.101347,134.968039
山南町小畑,35.098963,134.958333
山南町五ケ野,35.127055,134.966434
山南町西谷,35.119062,134.945995
春日町小多利,35.188779,135.134830
市島町南,35.194080,135.143421
市島町北奥,35.190989,135.176001
市島町戸平,35.203788,135.188433
市島町喜多,35.197382,135.155077
市島町上田,35.207157,135.138991
市島町上牧,35.205311,135.165352
市島町岩戸,35.216042,135.157913
市島町上垣,35.217774,135.144067
春日町稲塚,35.179891,135.092754
春日町古河,35.176687,135.087727
春日町新才,35.176634,135.078571
春日町長王,35.176851,135.064977
氷上町氷上,35.179210,135.044275
氷上町成松,35.174852,135.031708
市島町戸坂,35.189115,135.106381
春日町山田,35.187616,135.083606
市島町白毫寺,35.194093,135.089305
春日町牛河内,35.186178,135.071306
氷上町南油良,35.185278,135.055105
氷上町桟敷,35.190531,135.045926
氷上町常楽,35.185392,135.029367
氷上町下新庄,35.187032,135.017874
市島町酒梨,35.203126,135.109829
市島町与戸,35.201427,135.091644
氷上町北油良,35.198138,135.065453
氷上町絹山,35.202542,135.054410
氷上町賀茂,35.193895,135.034289
氷上町御油,35.214503,135.027896
市島町下鴨阪,35.223068,135.103976
市島町乙河内,35.214637,135.093326
氷上町香良,35.212830,135.064415
氷上町伊佐口,35.213385,135.044696
氷上町日比宇,35.217524,135.042045
氷上町小谷,35.225673,135.038163
氷上町沼,35.223250,135.028291
青垣町栗住野,35.225267,135.016451
市島町上鴨阪,35.233053,135.083346
氷上町鴨内,35.228551,135.058066
青垣町田井縄,35.235805,135.024947
氷上町中野,35.182415,134.988130
青垣町桧倉,35.241630,134.970097
氷上町三方,35.185579,134.968098
氷上町中,35.197750,134.958280
青垣町遠阪,35.291802,134.958631
山南町南中,35.095301,135.004771
山南町奥,35.085095,135.008279
山南町きらら通,35.082457,134.999279
山南町梶,35.078847,134.990627
山南町子茂田,35.077799,134.997148
山南町野坂,35.084251,135.001319
