name,latitude,longitude
佐賀県,多久市
北多久町大字小侍,33.303705,130.095300
北多久町大字多久原,33.311969,130.123217
北多久町メイプルタウン,33.289942,130.121678
多久,33.260723,130.091159
西多久町大字板屋,33.267002,130.051070
東多久町大字納所,33.260201,130.164483
東多久町大字別府,33.287330,130.151197
南多久町大字下多久,33.267159,130.130810
南多久町大字長尾,33.261573,130.116305
南多久町大字花祭,33.250224,130.144675
