name,latitude,longitude
沖縄県,中頭郡嘉手納町
屋良,26.365072,127.763168
字水釜,26.358919,127.748461
字屋良,26.361915,127.765873
字久得,26.388565,127.779594
字嘉手納,26.363803,127.754415
字兼久,26.348831,127.756396
水釜,26.357118,127.741499
