name,latitude,longitude
岐阜県,加茂郡川辺町
石神,35.498907,137.068680
鹿塩,35.499247,137.047942
上川辺,35.528720,137.077412
権現山,35.500365,137.101341
下麻生,35.534579,137.095769
下飯田,35.476147,137.083241
下川辺,35.474883,137.056307
下吉田,35.512628,137.106413
中川辺,35.492355,137.063370
中野,35.490447,137.078392
西栃井,35.483493,137.064660
比久見,35.495968,137.078369
福島,35.479450,137.075900
