name,latitude,longitude
岐阜県,不破郡関ケ原町
今須,35.329498,136.434151
大高,35.372532,136.478583
関ケ原,35.368524,136.464997
玉,35.375819,136.440087
藤下,35.357571,136.455747
野上,35.366051,136.494566
松尾,35.353835,136.464878
山中,35.356194,136.442785
