name,latitude,longitude
静岡県,御前崎市
池新田,34.643948,138.127084
御前崎,34.604420,138.216064
門屋,34.657948,138.110224
上朝比奈,34.679950,138.159421
合戸,34.648860,138.087425
佐倉,34.631479,138.154267
塩原新田,34.643444,138.102900
下朝比奈,34.674006,138.138648
白羽,34.613066,138.185692
新野,34.680739,138.122994
比木,34.653173,138.160722
港,34.612176,138.215758
宮内,34.644950,138.152276
