name,latitude,longitude
群馬県,甘楽郡南牧村
磐戸,36.159644,138.749107
大塩沢,36.194557,138.708628
大仁田,36.134651,138.696699
大日向,36.160191,138.712892
小沢,36.178980,138.749174
熊倉,36.155788,138.611564
千原,36.172601,138.736110
砥沢,36.148856,138.660118
羽沢,36.152848,138.642044
檜沢,36.140947,138.742941
星尾,36.184888,138.650233
六車,36.171657,138.690185
