name,latitude,longitude
群馬県,吾妻郡嬬恋村
芦生田,36.533260,138.560612
今井,36.581206,138.551651
大笹,36.489418,138.498437
大前,36.495186,138.530497
門貝,36.566427,138.517983
鎌原,36.467445,138.558403
西窪,36.524665,138.531598
田代,36.488227,138.438270
袋倉,36.536275,138.582983
干俣,36.581461,138.466508
三原,36.558228,138.543777
