name,latitude,longitude
三重県,度会郡大紀町
阿曽,34.334242,136.420146
打見,34.410966,136.478123
永会,34.363285,136.484158
大内山,34.274538,136.326565
柏野,34.309297,136.426726
金輪,34.389409,136.503558
神原,34.394167,136.456903
崎,34.298750,136.396437
滝原,34.367638,136.430624
錦,34.236819,136.395430
野添,34.411734,136.494229
野原,34.414450,136.519304
船木,34.393781,136.417578
三瀬川,34.390735,136.427410
