name,latitude,longitude
三重県,員弁郡東員町
穴太,35.081892,136.603252
大木,35.103962,136.585970
北大社,35.075109,136.577121
瀬古泉,35.067206,136.596293
筑紫,35.065784,136.607510
鳥取,35.091658,136.588129
中上,35.057238,136.597147
長深,35.059309,136.578508
八幡新田,35.093465,136.579313
南大社,35.072282,136.568788
山田,35.073624,136.585917
六把野新田,35.082292,136.596370
笹尾東,35.094020,136.597320
城山,35.091211,136.603517
