name,latitude,longitude
宮城県,柴田郡村田町
関場,38.090371,140.721338
薄木,38.099479,140.706337
沼田,38.084415,140.703358
村田,38.11875,140.720709
沼辺,38.078,140.737678
小泉,38.121071,140.745836
菅生,38.159237,140.766478
足立,38.14757,140.699855
