name,latitude,longitude
宮城県,加美郡色麻町
吉田,38.560895,140.830315
清水,38.565312,140.812789
一の関,38.534918,140.856664
高城,38.564825,140.836011
志津,38.545128,140.802557
高根,38.551971,140.801725
大,38.512996,140.868111
黒沢,38.544997,140.820378
王城寺,38.527269,140.804889
平沢,38.544634,140.766700
小栗山,38.523931,140.749782
四竃,38.534242,140.873178
