name,latitude,longitude
埼玉県,秩父郡皆野町
金崎,36.086772,139.102271
国神,36.086818,139.086131
大渕,36.072603,139.083502
野巻,36.068048,139.066261
下田野,36.082874,139.123991
皆野,36.070020,139.104390
上日野沢,36.085511,139.026107
下日野沢,36.089872,139.058355
金沢,36.107393,139.065072
三沢,36.058966,139.136123
