name,latitude,longitude
愛知県,海部郡大治町
鎌須賀,35.164339,136.829517
北間島,35.176451,136.830068
三本木,35.168387,136.820247
砂子,35.162118,136.823549
中島,35.174272,136.816964
長牧,35.180324,136.835254
西條,35.178777,136.811838
花常,35.181236,136.821085
東條,35.172126,136.828533
堀之内,35.175346,136.824010
馬島,35.173261,136.819748
八ツ屋,35.170769,136.833418
