name,latitude,longitude
大阪府,大阪市旭区
千林,34.723190,135.553015
高殿,34.719733,135.534840
新森,34.720042,135.553390
赤川,34.722616,135.533157
清水,34.722161,135.554874
生江,34.724827,135.536687
中宮,34.726054,135.541602
森小路,34.720028,135.549531
今市,34.727629,135.551786
大宮,34.723456,135.546387
太子橋,34.736295,135.554392
