name,latitude,longitude
大阪府,大阪市生野区
中川,34.663515,135.542719
林寺,34.645581,135.528860
勝山南,34.653133,135.531038
新今里,34.663302,135.551425
鶴橋,34.663817,135.537010
舎利寺,34.651113,135.538241
田島,34.648352,135.542140
小路,34.657254,135.554456
生野東,34.647251,135.534496
勝山北,34.655919,135.536665
桃谷,34.659863,135.537090
巽北,34.655180,135.553953
巽中,34.643913,135.551059
