name,latitude,longitude
大阪府,大阪市港区
池島,34.657920,135.449062
港晴,34.656408,135.443710
八幡屋,34.657707,135.446259
波除,34.673986,135.462884
築港,34.652129,135.432424
磯路,34.666815,135.462093
弁天,34.671294,135.458301
市岡元,34.667492,135.464354
田中,34.665669,135.449750
夕凪,34.663369,135.453572
南市岡,34.667157,135.471795
市岡,34.659821,135.462433
石田,34.662347,135.443732
三先,34.660412,135.455339
海岸通,34.653754,135.429178
福崎,34.657786,135.459471
