name,latitude,longitude
大阪府,大阪市大正区
北村,34.651833,135.468830
平尾,34.639714,135.471083
南恩加島,34.637704,135.470699
三軒家西,34.665043,135.474880
泉尾,34.659969,135.472762
千島,34.650306,135.470625
鶴,34.640317,135.459507
北恩加島,34.653530,135.464701
小林西,34.643862,135.468418
船,34.629233,135.468323
