name,latitude,longitude
大阪府,大阪市鶴見区
浜,34.714370,135.582075
今津中,34.691927,135.577570
徳庵,34.698531,135.583109
緑,34.716229,135.564500
安田,34.707441,135.589667
中茶屋,34.701048,135.588365
今津北,34.694772,135.581152
諸口,34.703440,135.583694
鶴見,34.708114,135.564177
焼野,34.720860,135.584982
茨田大宮,34.708459,135.595445
横堤,34.700911,135.573488
放出東,34.691586,135.562656
緑地公園,34.713146,135.579597
