name,latitude,longitude
秋田県,山本郡八峰町
八森,40.396356,140.038690
峰浜石川,40.283043,140.110075
峰浜内荒巻,40.262147,140.079946
峰浜高野々,40.289352,140.040611
峰浜小手萩,40.270447,140.072816
峰浜坂形,40.274114,140.049093
峰浜田中,40.284323,140.038506
峰浜沼田,40.273762,140.026814
峰浜畑谷,40.287993,140.058627
峰浜塙,40.323284,140.117269
峰浜水沢,40.363477,140.105134
峰浜目名潟,40.328271,140.068704
