name,latitude,longitude
秋田県,鹿角市
尾去沢,40.179767,140.741629
十和田上向,40.301188,140.773355
十和田大湯,40.344895,140.889827
十和田岡田,40.275510,140.781009
十和田草木,40.267489,140.857292
十和田毛馬内,40.278049,140.751492
十和田末広,40.224313,140.727627
十和田瀬田石,40.260526,140.742062
十和田錦木,40.255922,140.774570
十和田山根,40.324304,140.804874
八幡平,40.068493,140.778685
花輪,40.215922,140.819750
