name,latitude,longitude
秋田県,山本郡三種町
芦崎,40.073290,139.962481
天瀬川,39.990972,140.081694
鵜川,40.110816,140.021361
大口,40.093217,139.971003
鹿渡,40.050164,140.097380
上岩川,40.032668,140.182214
川尻,40.089596,140.037971
久米岡新田,40.078161,140.034713
鯉川,40.004748,140.097838
志戸橋,40.140738,140.086007
下岩川,40.091684,140.145289
外岡,40.132713,140.050399
富岡新田,40.088712,140.012837
豊岡金田,40.116200,140.089610
浜田,40.107267,139.983317
森岳,40.090676,140.076289
