name,latitude,longitude
青森県,三戸郡階上町
赤保内,40.443771,141.610630
金山沢,40.439204,141.538750
田代,40.377212,141.558853
角柄折,40.454772,141.572887
道仏,40.448238,141.649675
鳥屋部,40.422739,141.599274
晴山沢,40.399440,141.554906
平内,40.420760,141.556793
蒼前東,40.475000,141.582433
