name,latitude,longitude
青森県,上北郡六戸町
犬落瀬,40.648177,141.328661
折茂,40.633312,141.282664
上吉田,40.581938,141.327752
小平,40.580252,141.297876
下吉田,40.586890,141.363822
鶴喰,40.586036,141.306697
柳,40.593235,141.291996
金矢,40.681193,141.325690
小松ケ丘,40.662012,141.332171
