name,latitude,longitude
京都府,京都市左京区
秋築,35.014829,135.774558
粟田口大日山,35.010098,135.800098
粟田口鳥居,35.010533,135.786640
粟田口如意ケ嶽,35.017304,135.827398
粟田口山下,35.007671,135.791190
石原,35.014047,135.775571
一乗寺青城,35.046173,135.789664
一乗寺赤ノ宮,35.042280,135.782821
一乗寺庵野,35.039471,135.793963
一乗寺池ケ谷,35.053903,135.814503
一乗寺井出ケ谷,35.059954,135.829860
一乗寺井手ケ谷エノ木ケ尾,35.061962,135.833628
一乗寺井手ケ谷菖蒲平,35.057496,135.831413
一乗寺井手ケ谷ススガ平,35.059784,135.828216
一乗寺井手ケ谷調専口,35.060688,135.831809
一乗寺稲荷,35.047702,135.794130
一乗寺馬坂,35.046304,135.812318
一乗寺厩ケ谷,35.053438,135.821088
一乗寺梅ノ木,35.040996,135.787358
一乗寺延暦寺山,35.054203,135.830127
一乗寺大谷,35.044011,135.806361
一乗寺大原田,35.041957,135.785729
一乗寺掛橋,35.053963,135.817037
一乗寺月輪寺,35.049219,135.799931
一乗寺河原田,35.039769,135.785991
一乗寺北大丸,35.045507,135.786687
一乗寺北高山,35.049134,135.813962
一乗寺木ノ本,35.040967,135.790339
一乗寺黒目ケ谷,35.058794,135.826501
一乗寺御祭田,35.042171,135.787708
一乗寺小谷,35.044662,135.797059
一乗寺才形,35.041846,135.794682
一乗寺坂端,35.050633,135.808020
一乗寺下リ松,35.044235,135.792883
一乗寺里ノ西,35.044734,135.788975
一乗寺里ノ前,35.043418,135.788807
一乗寺三百坊,35.061659,135.834496
一乗寺地獄谷,35.049546,135.819578
一乗寺地蔵本,35.041450,135.783858
一乗寺シ谷,35.052575,135.820410
一乗寺清水,35.046631,135.791527
一乗寺釈迦堂,35.044658,135.794966
一乗寺城,35.051199,135.812669
一乗寺砂坂,35.060942,135.835276
一乗寺勢ケ谷,35.058565,135.834776
一乗寺染殿,35.039748,135.787737
一乗寺大新開,35.042298,135.784385
一乗寺高槻,35.044690,135.785180
一乗寺竹ノ内,35.049584,135.802655
一乗寺谷田,35.045161,135.792985
一乗寺塚本,35.038351,135.790175
一乗寺築田,35.039569,135.790238
一乗寺出口,35.042163,135.792798
一乗寺天ケ丸,35.058371,135.821030
一乗寺堂ノ前,35.046531,135.796107
一乗寺燈籠本,35.045410,135.795178
一乗寺長尾,35.058855,135.825064
一乗寺中尾ケ谷,35.052095,135.817673
一乗寺中ノ田,35.042073,135.790412
一乗寺西浦畑,35.046327,135.793727
一乗寺西杉ノ宮,35.046251,135.785835
一乗寺西閉川原,35.047424,135.787076
一乗寺西水干,35.038542,135.786187
一乗寺西楽ケ谷,35.050452,135.816014
一乗寺ヌノ滝,35.053710,135.825160
一乗寺野田,35.041121,135.792687
一乗寺花ケ谷,35.059720,135.823472
一乗寺花ノ木,35.043338,135.792936
一乗寺馬場,35.048363,135.796211
一乗寺葉山,35.044515,135.801437
一乗寺葉山,35.046290,135.797359
一乗寺払殿,35.043545,135.785354
一乗寺東浦,35.047595,135.796812
一乗寺東杉ノ宮,35.046487,135.787484
一乗寺東閉川原,35.047314,135.788162
一乗寺東水干,35.038599,135.787957
一乗寺東楽ケ谷,35.050356,135.818077
一乗寺樋ノ口,35.039043,135.792165
一乗寺風呂ケ谷,35.051786,135.814963
一乗寺ボケ谷,35.044499,135.812302
一乗寺堀切,35.044435,135.809799
一乗寺堀ノ内,35.046504,135.795121
一乗寺松田,35.047438,135.790077
一乗寺松原,35.041114,135.798577
一乗寺水掛,35.047806,135.801447
一乗寺南大丸,35.044560,135.786726
一乗寺南高山,35.047677,135.813308
一乗寺宮ノ東,35.044123,135.791079
一乗寺向畑,35.046732,135.792453
一乗寺門口,35.043847,135.795141
一乗寺薬師堂,35.043094,135.794830
一乗寺ヤケ谷,35.056237,135.824501
一乗寺病ダレ,35.056089,135.833338
一乗寺艾谷,35.046909,135.814722
一乗寺割ケ谷,35.055133,135.821678
岩倉上蔵,35.085031,135.775918
岩倉大鷺,35.064804,135.786679
岩倉北池田,35.064858,135.776364
岩倉北桑原,35.068281,135.782379
岩倉北平岡,35.068356,135.777233
岩倉北四ノ坪,35.068157,135.784356
岩倉木野,35.076277,135.772370
岩倉下在地,35.073817,135.785886
岩倉忠在地,35.076450,135.786749
岩倉中大鷺,35.063721,135.787350
岩倉中河原,35.070750,135.780296
岩倉中在地,35.081905,135.785380
岩倉長谷,35.089254,135.799241
岩倉中,35.074364,135.789300
岩倉西河原,35.072326,135.783394
岩倉西五田,35.064824,135.779272
岩倉西宮田,35.066602,135.779063
岩倉幡枝,35.066052,135.771819
岩倉花園,35.076032,135.800216
岩倉東五田,35.064075,135.781536
岩倉東宮田,35.066364,135.780721
岩倉三笠,35.070428,135.783798
岩倉南池田,35.063702,135.776086
岩倉南大鷺,35.062424,135.786156
岩倉南河原,35.068592,135.779783
岩倉南木野,35.070812,135.777505
岩倉南桑原,35.066040,135.782322
岩倉南平岡,35.066808,135.777100
岩倉南三宅,35.065123,135.789522
岩倉南四ノ坪,35.065886,135.783972
岩倉三宅,35.068068,135.791258
岩倉村松,35.094545,135.781855
永観堂,35.013784,135.794889
永観堂西,35.015041,135.792321
大菊,35.011932,135.773798
大原井出,35.102150,135.815694
大原上野,35.106832,135.840059
大原大長瀬,35.113776,135.836585
大原大見,35.192417,135.812933
大原尾越,35.212671,135.821553
大原草生,35.129762,135.819588
大原古知平,35.136280,135.828410
大原小出石,35.159013,135.829380
大原勝林院,35.130781,135.842198
大原戸寺,35.103523,135.829958
大原野村,35.115879,135.816289
大原百井,35.176942,135.809673
大原来迎院,35.119676,135.841411
岡崎入江,35.017468,135.783277
岡崎円勝寺,35.011394,135.782456
岡崎北御所,35.017116,135.785434
岡崎最勝寺,35.014298,135.781810
岡崎真如堂前,35.021926,135.786719
岡崎成勝寺,35.012746,135.782055
岡崎天王,35.016644,135.787460
岡崎徳成,35.015031,135.778385
岡崎西天王,35.016157,135.781827
岡崎西福ノ川,35.019808,135.783617
岡崎東天王,35.016732,135.790131
岡崎東福ノ川,35.019787,135.785251
岡崎法勝寺,35.013700,135.787631
岡崎南御所,35.014696,135.785396
頭,35.012750,135.775889
上高野池ノ内,35.065006,135.794279
上高野石田,35.060749,135.788740
上高野市川,35.065096,135.793067
上高野稲荷,35.062678,135.798021
上高野植ノ,35.062757,135.799373
上高野上畑,35.061438,135.799220
上高野大塚,35.056861,135.792971
上高野大橋,35.064075,135.797086
上高野大湯手,35.064233,135.791755
上高野奥小森,35.063367,135.802404
上高野奥東野,35.061797,135.801324
上高野小野,35.064056,135.795575
上高野尾保地,35.064026,135.793662
上高野鐘突,35.061770,135.795535
上高野釜土,35.060622,135.800737
上高野上荒蒔,35.058170,135.791771
上高野掃部林,35.060713,135.802002
上高野川原,35.064171,135.798180
上高野北川原,35.063390,135.795498
上高野北田,35.066345,135.794269
上高野木ノ下,35.062727,135.796849
上高野口小森,35.062871,135.800740
上高野車地,35.062126,135.792204
上高野西明寺山,35.067649,135.800140
上高野鷺,35.061846,135.787640
上高野薩田,35.064811,135.792028
上高野沢淵,35.058894,135.797044
上高野三反田,35.063261,135.793443
上高野下荒蒔,35.056881,135.791723
上高野下東野,35.061850,135.800346
上高野水車,35.064184,135.801843
上高野大明神,35.066122,135.795380
上高野鳥脇,35.062617,135.793344
上高野仲,35.062953,135.790830
上高野流田,35.058918,135.789968
上高野西氷室,35.059040,135.791522
上高野野上,35.061780,135.793375
上高野畑ケ田,35.061352,135.797357
上高野畑,35.059613,135.799128
上高野八幡,35.063922,135.799631
上高野東田,35.061487,135.803221
上高野東氷室,35.059163,135.792932
上高野東山,35.062981,135.811145
上高野氷室山,35.058837,135.794497
上高野深田,35.063154,135.789136
上高野古川,35.061180,135.790452
上高野防山,35.059762,135.803370
上高野前田,35.059826,135.797120
上高野松田,35.060912,135.795115
上高野三宅,35.067661,135.793848
上高野諸木,35.064495,135.790638
上高野山ノ橋,35.060034,135.791533
上高野隣好,35.062001,135.794461
賀茂今井,35.047371,135.761410
賀茂半木,35.046005,135.762896
菊鉾,35.011018,135.775240
北白川伊織,35.035935,135.789262
北白川岩坂,35.041543,135.812767
北白川瓜生山,35.036938,135.795364
北白川追分,35.030715,135.783856
北白川小倉,35.031242,135.788661
北白川重石,35.040120,135.814090
北白川上池田,35.032093,135.794822
北白川上終,35.036739,135.791686
北白川上別当,35.032119,135.792556
北白川清沢口,35.037753,135.800629
北白川久保田,35.028825,135.789219
北白川小亀谷,35.025878,135.818702
北白川地蔵谷,35.035600,135.803453
北白川仕伏,35.031229,135.796515
北白川下池田,35.030374,135.794407
北白川下別当,35.030578,135.792413
北白川瀬ノ内,35.035998,135.790599
北白川大堂,35.033552,135.792354
北白川蔦,35.033659,135.787487
北白川堂ノ前,35.032505,135.790802
北白川外山,35.029376,135.800422
北白川中山,35.031574,135.821226
北白川西伊織,35.037384,135.788695
北白川西瀬ノ内,35.034081,135.789339
北白川西蔦,35.033728,135.786447
北白川西平井,35.035233,135.786326
北白川西,35.030788,135.786932
北白川東伊織,35.037320,135.790495
北白川東小倉,35.030141,135.790138
北白川東久保田,35.028691,135.792191
北白川東瀬ノ内,35.034155,135.790553
北白川東蔦,35.033624,135.788303
北白川東平井,35.035539,135.788252
北白川平井,35.035190,135.787258
北白川琵琶,35.031121,135.799714
北白川別当,35.031242,135.790880
北白川丸山,35.031045,135.798181
北白川南ケ原,35.027065,135.814556
北白川向ケ谷,35.025761,135.818147
北白川山田,35.035130,135.793803
北白川山ノ元,35.033171,135.794987
北白川蓬ケ谷,35.040602,135.808307
北門前,35.012326,135.778513
銀閣寺,35.027256,135.797401
銀閣寺前,35.028074,135.793662
久多上の,35.296523,135.799426
久多川合,35.271861,135.844787
久多下の,35.247166,135.831242
久多中の,35.273522,135.822949
久多宮の,35.261338,135.807813
鞍馬貴船,35.122061,135.762088
鞍馬二ノ瀬,35.122827,135.749283
鞍馬本,35.132576,135.777462
黒谷,35.019514,135.788474
讃州寺,35.010905,135.774660
鹿ケ谷上宮ノ前,35.019147,135.792962
鹿ケ谷栗木谷,35.021186,135.803632
鹿ケ谷御所ノ段,35.022565,135.797397
鹿ケ谷桜谷,35.019417,135.794990
鹿ケ谷下宮ノ前,35.017450,135.793167
鹿ケ谷菖蒲谷,35.017470,135.815648
鹿ケ谷善気山,35.024302,135.798960
鹿ケ谷大黒谷,35.018557,135.807093
鹿ケ谷高岸,35.016182,135.792466
鹿ケ谷多頂山,35.023095,135.799299
鹿ケ谷寺ノ前,35.020912,135.794854
鹿ケ谷徳善谷,35.018689,135.800106
鹿ケ谷西寺ノ前,35.020807,135.793089
鹿ケ谷若王子山,35.014291,135.799740
鹿ケ谷不動山,35.019710,135.797953
鹿ケ谷法然院,35.022469,135.795848
鹿ケ谷法然院西,35.022218,135.793544
鹿ケ谷宮ノ前,35.018812,135.795955
静市市原,35.084663,135.761205
静市静原,35.118727,135.794921
静市野中,35.096122,135.768109
下鴨泉川,35.036330,135.773559
下鴨狗子田,35.050859,135.768914
下鴨梅ノ木,35.045872,135.771065
下鴨膳部,35.042387,135.772448
下鴨上川原,35.043656,135.764265
下鴨岸本,35.046627,135.773541
下鴨北芝,35.053221,135.768955
下鴨北園,35.047312,135.769426
下鴨北茶ノ木,35.054389,135.771748
下鴨北野々神,35.051959,135.771489
下鴨貴船,35.042380,135.767281
下鴨神殿,35.049637,135.770044
下鴨芝本,35.042304,135.769564
下鴨下川原,35.039787,135.767631
下鴨高木,35.043948,135.776149
下鴨蓼倉,35.040060,135.775378
下鴨塚本,35.045305,135.775262
下鴨中川原,35.041532,135.765712
下鴨西梅ノ木,35.045171,135.769351
下鴨西高木,35.042784,135.774808
下鴨西林,35.039022,135.770578
下鴨西半木,35.044510,135.765503
下鴨西本,35.043904,135.768861
下鴨萩ケ垣内,35.049259,135.768463
下鴨半木,35.048354,135.764241
下鴨東梅ノ木,35.045183,135.773640
下鴨東岸本,35.046761,135.775147
下鴨東高木,35.042992,135.776776
下鴨東塚本,35.045727,135.776458
下鴨東半木,35.044894,135.767395
下鴨東本,35.043841,135.773779
下鴨東森ケ前,35.042596,135.778304
下鴨本,35.043820,135.771511
下鴨前萩,35.050384,135.767895
下鴨松ノ木,35.040466,135.771243
下鴨松原,35.036229,135.770692
下鴨水口,35.054477,135.768901
下鴨南芝,35.052041,135.769035
下鴨南茶ノ木,35.053230,135.771770
下鴨南野々神,35.050955,135.771405
下鴨宮河,35.031871,135.771673
下鴨宮崎,35.035663,135.769107
下鴨森ケ前,35.041711,135.776630
下鴨森本,35.036783,135.771350
下鴨夜光,35.049103,135.772028
下鴨梁田,35.050022,135.771999
下堤,35.016435,135.772233
修学院安養坊,35.055012,135.800725
修学院石掛,35.051720,135.798326
修学院泉殿,35.054169,135.797211
修学院犬塚,35.051274,135.793768
修学院牛ケ額,35.063151,135.824789
修学院梅谷,35.056660,135.811345
修学院大林,35.048672,135.792046
修学院沖殿,35.052630,135.793544
修学院音羽谷,35.053605,135.808385
修学院開根坊,35.055959,135.800698
修学院貝原,35.054716,135.797991
修学院桂谷,35.059270,135.812703
修学院月輪寺,35.050301,135.801419
修学院鹿ノ下,35.050185,135.792402
修学院烏丸,35.052926,135.798584
修学院川尻,35.053131,135.795587
修学院北沮沢,35.056469,135.798156
修学院後安堂,35.052005,135.799998
修学院尺羅ケ谷四明ケ嶽,35.066395,135.829623
修学院十権寺,35.048264,135.793863
修学院守禅庵,35.058823,135.802611
修学院水上田,35.055163,135.793790
修学院杉谷,35.058114,135.817139
修学院赤山,35.055454,135.804957
修学院千万田,35.056927,135.794033
修学院大道,35.055693,135.798854
修学院高岸,35.053941,135.801905
修学院高部,35.053990,135.793261
修学院段ノ尾,35.057168,135.819626
修学院茶屋ノ前,35.051968,135.796909
修学院辻ノ田,35.050963,135.801669
修学院坪江,35.050488,135.798012
修学院寺谷,35.059620,135.806703
修学院中新開,35.052622,135.800417
修学院中林,35.049366,135.793809
修学院西沮沢,35.055522,135.797395
修学院登リ内,35.050785,135.796318
修学院狭間,35.049392,135.796132
修学院馬場脇,35.055130,135.799351
修学院林ノ脇,35.052063,135.802690
修学院檜峠,35.058595,135.801174
修学院淵ケ谷,35.056378,135.816208
修学院仏者,35.053155,135.797321
修学院松本,35.053125,135.802457
修学院丸子青良ケ谷,35.062653,135.820377
修学院水川原,35.052184,135.795341
修学院南代,35.050835,135.799466
修学院宮ノ前,35.055006,135.801893
修学院宮ノ脇,35.049693,135.798968
修学院室,35.053945,135.799796
修学院薬師堂,35.050646,135.794839
修学院藪添,35.053277,135.800826
修学院山神,35.054305,135.802066
修学院山添,35.056923,135.799376
修学院山ノ鼻,35.054242,135.795341
修学院横山,35.056869,135.796347
正往寺,35.012777,135.776962
聖護院円頓美,35.017453,135.780861
聖護院川原,35.019185,135.774982
聖護院山王,35.017429,135.778768
聖護院中,35.019457,135.780890
聖護院西,35.019432,135.779261
聖護院東寺領,35.015763,135.773811
聖護院東,35.019715,135.782302
聖護院蓮華蔵,35.015060,135.776562
浄土寺石橋,35.026890,135.793924
浄土寺打越,35.025240,135.808449
浄土寺大山,35.026665,135.802131
浄土寺上馬場,35.025158,135.790834
浄土寺上南田,35.025318,135.795032
浄土寺広帖,35.024064,135.812205
浄土寺小山,35.028608,135.796417
浄土寺下馬場,35.023300,135.791022
浄土寺下南田,35.023442,135.794673
浄土寺真如,35.021216,135.789875
浄土寺提灯山,35.024831,135.800174
浄土寺七廻リ,35.023777,135.804517
浄土寺西田,35.027485,135.790491
浄土寺馬場,35.024009,135.792800
浄土寺東田,35.026690,135.792131
浄土寺南田,35.025256,135.797295
新生洲,35.014523,135.772150
新車屋,35.012750,135.774670
新東洞院,35.012756,135.775245
新先斗,35.014099,135.772904
新丸太,35.011205,135.773266
杉本,35.014133,135.774532
大文字,35.014474,135.773480
高野泉,35.047417,135.785112
高野上竹屋,35.043897,135.782356
高野清水,35.037148,135.777355
高野竹屋,35.042732,135.781000
高野蓼原,35.035151,135.776131
高野玉岡,35.045284,135.783315
高野西開,35.040149,135.778618
高野東開,35.039456,135.780894
田中飛鳥井,35.031975,135.779983
田中大堰,35.030630,135.777616
田中大久保,35.036097,135.782369
田中上大久保,35.037695,135.783013
田中上玄京,35.033652,135.777626
田中上古川,35.039761,135.783829
田中上柳,35.031147,135.773900
田中北春菜,35.037562,135.784641
田中玄京,35.032330,135.776981
田中里ノ内,35.034277,135.781032
田中里ノ前,35.033006,135.781055
田中下柳,35.028843,135.772877
田中関田,35.028622,135.775931
田中高原,35.037040,135.786448
田中西浦,35.036324,135.779444
田中西大久保,35.036610,135.780948
田中西高原,35.037037,135.785429
田中西春菜,35.035487,135.783274
田中西樋ノ口,35.034037,135.782915
田中野神,35.033651,135.779365
田中馬場,35.032688,135.774966
田中春菜,35.035366,135.784341
田中東高原,35.037008,135.787461
田中東春菜,35.035318,135.785334
田中東樋ノ口,35.033750,135.785277
田中樋ノ口,35.033826,135.784270
田中古川,35.038719,135.783392
田中南大久保,35.034981,135.780195
田中南西浦,35.034880,135.777953
田中門前,35.029970,135.780152
超勝寺門前,35.010024,135.774229
中川,35.014904,135.773692
南禅寺北ノ坊,35.016780,135.794714
南禅寺草川,35.012011,135.789013
南禅寺下河原,35.014098,135.791889
南禅寺南禅寺山,35.011192,135.796049
南禅寺福地,35.010802,135.791976
南禅寺風呂山,35.009615,135.794213
難波,35.014062,135.774014
若王子,35.015548,135.795557
花脊大布施,35.204472,135.778251
花脊原地,35.236151,135.791879
花脊別所,35.173209,135.784147
花脊八桝,35.222846,135.781063
東竹屋,35.016798,135.775967
東丸太,35.017654,135.774607
東門前,35.010849,135.778462
広河原尾花,35.274395,135.740859
広河原下之,35.269523,135.756832
広河原杓子屋,35.249245,135.762502
広河原菅原,35.254643,135.741376
広河原能見,35.270491,135.778399
福本,35.011669,135.776565
法皇寺,35.010412,135.777036
法林寺門前,35.009891,135.772809
孫橋,35.011955,135.772280
松ケ崎泉川,35.047397,135.776297
松ケ崎壱町田,35.051409,135.778486
松ケ崎井出ケ海道,35.051516,135.776412
松ケ崎井出ケ鼻,35.056292,135.790852
松ケ崎今海道,35.051244,135.775554
松ケ崎榎実ケ芝,35.060202,135.776088
松ケ崎大谷,35.059024,135.773687
松ケ崎海尻,35.051332,135.779670
松ケ崎河原田,35.053151,135.789625
松ケ崎北裏,35.059043,135.780745
松ケ崎狐坂,35.056725,135.776151
松ケ崎木燈籠,35.057903,135.785379
松ケ崎木ノ本,35.051130,135.780899
松ケ崎境ケ谷,35.057755,135.786622
松ケ崎久土,35.047002,135.781376
松ケ崎雲路,35.051673,135.783294
松ケ崎鞍馬田,35.050751,135.783295
松ケ崎御所海道,35.049281,135.780999
松ケ崎御所ノ内,35.053009,135.783861
松ケ崎小竹藪,35.047932,135.783576
松ケ崎小脇,35.050632,135.785820
松ケ崎桜木,35.044507,135.778549
松ケ崎笹ケ谷,35.057014,135.781837
松ケ崎三反長,35.049486,135.775882
松ケ崎芝本,35.051670,135.773685
松ケ崎修理式,35.049337,135.778574
松ケ崎丈ケ谷,35.058370,135.783562
松ケ崎正田,35.048319,135.782555
松ケ崎城山,35.057302,135.788417
松ケ崎杉ケ海道,35.047438,135.779877
松ケ崎千石岩,35.058918,135.789272
松ケ崎総作,35.053938,135.775171
松ケ崎高山,35.059020,135.777960
松ケ崎糺田,35.049322,135.779805
松ケ崎堂ノ上,35.047931,135.778058
松ケ崎中海道,35.046339,135.779443
松ケ崎中,35.052495,135.779918
松ケ崎西池ノ内,35.054046,135.773686
松ケ崎西桜木,35.045185,135.777523
松ケ崎西,35.052929,135.778336
松ケ崎西山,35.055922,135.772705
松ケ崎寝子ケ山,35.061249,135.779915
松ケ崎橋上,35.049765,135.783343
松ケ崎林山,35.054526,135.778616
松ケ崎東池ノ内,35.054214,135.776605
松ケ崎東桜木,35.044143,135.779744
松ケ崎東,35.053105,135.785752
松ケ崎東山,35.055418,135.784403
松ケ崎樋ノ上,35.053204,135.788156
松ケ崎平田,35.053049,135.776910
松ケ崎堀,35.053351,135.782067
松ケ崎丸子,35.056177,135.779267
松ケ崎深泥池端,35.056915,135.771949
松ケ崎南池ノ内,35.053135,135.774693
松ケ崎村ケ内,35.045683,135.779690
松ケ崎柳井田,35.046673,135.777759
松ケ崎横縄手,35.049383,135.777354
松ケ崎呼返,35.049144,135.774208
松ケ崎六ノ坪,35.051304,135.777186
南門前,35.010058,135.778409
八瀬秋元,35.078876,135.827559
八瀬近衛,35.084801,135.812620
八瀬野瀬,35.071404,135.809770
八瀬花尻,35.096921,135.827213
山端壱町田,35.050605,135.791218
山端大君,35.055004,135.792297
山端大塚,35.055959,135.792305
山端川岸,35.053442,135.790663
山端川端,35.050146,135.788305
山端川原,35.050065,135.789630
山端大城田,35.048481,135.788504
山端滝ケ鼻,35.054027,135.791969
山端橋ノ本,35.051451,135.791388
山端森本,35.052627,135.791830
山端柳ケ坪,35.048903,135.790628
吉田泉殿,35.027418,135.776726
吉田牛ノ宮,35.025349,135.777508
吉田神楽岡,35.025755,135.787151
吉田上阿達,35.026361,135.773819
吉田上大路,35.024596,135.783182
吉田河原,35.024098,135.772856
吉田近衛,35.021565,135.780272
吉田下阿達,35.021768,135.773699
吉田下大路,35.021921,135.784011
吉田橘,35.022768,135.777436
吉田中阿達,35.024820,135.775244
吉田中大路,35.023009,135.783546
吉田二本松,35.023706,135.780238
吉田本,35.026964,135.781961
吉永,35.014056,135.774920
和国,35.010908,135.775836
