name,latitude,longitude
京都府,京都市下京区
相之,35.002973,135.764009
悪王子,34.996997,135.759624
朝妻,34.997064,135.761822
芦刈山,35.002472,135.754406
新シ,34.989635,135.757709
安土,34.997042,135.766168
油小路,34.988309,135.753716
飴屋,34.989870,135.761086
綾大宮,35.001973,135.748808
綾材木,35.002568,135.763288
綾西洞院,35.001859,135.755128
綾堀川,35.001860,135.752123
石井筒,35.003043,135.753735
石不動之,34.998976,135.766137
和泉,34.994686,135.761062
和泉屋,35.000312,135.769436
伊勢松,34.987527,135.751429
市之,35.001699,135.769403
井筒,34.990285,135.756063
糸屋,35.001267,135.757426
因幡堂,34.999533,135.760178
稲荷,34.989228,135.766571
乾,34.993347,135.757500
今大黒,35.000600,135.749865
岩滝,34.993451,135.766134
岩戸山,35.000671,135.756730
植松,34.991403,135.755000
艮,34.993486,135.756711
打越,34.991831,135.761877
梅小路石橋,34.986120,135.734745
梅小路頭,34.985228,135.740596
梅小路高畑,34.983371,135.735713
梅小路西中,34.984763,135.734754
梅小路東中,34.984815,135.737019
梅小路東,34.985983,135.739174
梅小路本,34.985877,135.737171
梅湊,34.992901,135.765194
裏片,34.992502,135.747785
永養寺,35.000173,135.754449
榎木,34.990810,135.761869
蛭子,34.995002,135.757090
夷之,34.993684,135.761827
恵美須之,35.000781,135.767255
夷馬場,34.990325,135.745273
蛭子水,34.991505,135.755598
恵美須屋,34.999607,135.764760
大江,34.998273,135.761018
扇酒屋,35.001910,135.760968
大坂,34.995090,135.759675
大津,34.995685,135.761814
大堀,34.997663,135.760252
大政所,35.000751,135.759512
大宮,34.993602,135.748991
大宮,34.989640,135.765669
御旅,35.003661,135.768260
御旅宮本,35.003776,135.767302
小田原,34.997146,135.757447
皆山,34.990017,135.762656
垣ケ内,34.985952,135.749386
柿本,34.995723,135.750896
鍵屋,34.991731,135.766261
学林,34.993411,135.754468
風早,35.001814,135.753717
傘鉾,35.003702,135.754494
鍛冶屋,34.998182,135.763326
柏屋,35.003679,135.753096
堅田,34.997742,135.763192
郭巨山,35.003744,135.755921
金屋,34.994427,135.755364
金換,34.987300,135.750746
鎌屋,34.988333,135.752609
上鱗形,34.998210,135.765479
上夷,34.986416,135.750845
上金仏,34.997046,135.753607
上糀屋,34.987649,135.750077
上五条,34.997852,135.748961
上三之宮,34.990884,135.766028
上珠数屋,34.992163,135.760468
上錫屋,34.994952,135.755933
上諏訪,34.995893,135.758906
上長福寺,34.998150,135.748378
上中之,34.987283,135.749343
上二之宮,34.991018,135.766667
上之,34.988246,135.749288
上平野,34.995479,135.760377
上柳,34.995568,135.757529
上若宮,34.994437,135.755951
亀,34.991755,135.760218
亀屋,34.998212,135.755956
烏丸,34.992942,135.759582
唐津屋,35.003621,135.751231
唐物,34.992824,135.763312
雁金,35.000125,135.764396
川端,34.988213,135.751966
観喜寺,34.987285,135.744645
函谷鉾,35.003705,135.758878
元日,34.993523,135.752626
官社殿,34.997687,135.762832
菅大臣,35.001062,135.755924
菊屋,34.999486,135.755975
北小路,34.990347,135.753530
北,34.993740,135.759622
北不動堂,34.987540,135.753719
北門前,34.998640,135.750830
吉文字,34.999520,135.751318
木津屋,34.987865,135.751583
京極,34.999583,135.766889
喜吉,35.001292,135.753041
金東横,34.996518,135.754171
釘隠,35.001308,135.758704
小石,35.003074,135.763321
小泉,34.996925,135.752672
小稲荷,34.988152,135.763020
荒神,35.000809,135.752719
幸竹,34.999860,135.767575
郷之,34.988205,135.764487
高野堂,35.003143,135.752863
粉川,34.989759,135.760348
御器屋,34.989630,135.749337
御供石,34.997641,135.758928
五軒,34.999481,135.752315
小坂,34.993468,135.745986
小島,34.999455,135.758824
五条烏丸,34.998268,135.759536
五坊大宮,35.000669,135.749090
米屋,34.989777,135.753845
小柳,34.995458,135.754963
紺屋,34.991015,135.764746
斎藤,35.002750,135.770822
材木,34.997134,135.756730
堺,34.992071,135.753382
栄,34.993699,135.763130
下り松,35.002937,135.749693
桜木,34.989531,135.759694
笹屋,34.990774,135.761082
篠屋,34.998083,135.752918
佐竹,35.003052,135.751191
佐女牛井,34.994693,135.752718
晒屋,35.001229,135.751145
三軒替地,34.987221,135.751294
三軒,35.000442,135.761730
山王,34.991525,135.765959
塩竈,34.996214,135.763753
塩小路,34.988391,135.761125
塩屋,35.001878,135.749816
四条大宮,35.003123,135.748576
四条,35.003060,135.756767
四条堀川,35.003023,135.752072
七条御所ノ内北,34.987236,135.731631
七条御所ノ内中,34.986037,135.731650
七条御所ノ内西,34.986684,135.728680
七条御所ノ内本,34.984875,135.731662
七条御所ノ内南,34.983561,135.731869
四本松,34.991994,135.755982
清水,34.987290,135.751992
志水,34.986155,135.751730
下魚棚,34.988819,135.751464
下鱗形,34.996897,135.765460
下糀屋,34.987210,135.750089
下五条,34.996055,135.748958
下材木,34.996611,135.767858
下三之宮,34.989891,135.766048
下諏訪,34.994449,135.758899
下長福寺,34.996734,135.748368
下二之宮,34.989887,135.766680
下之,34.986218,135.765074
下平野,34.994574,135.760365
下万寿寺,34.995871,135.761060
下柳,34.992994,135.758950
十禅師,34.990871,135.765657
十文字,35.000166,135.750172
珠数屋,34.991510,135.753490
俊成,34.998756,135.760183
順風,35.003155,135.769397
聖真子,34.993644,135.765839
卓屋,34.990742,135.760398
新開,35.000729,135.762920
新釜座,35.003222,135.755990
真,35.003782,135.769789
新日吉,34.989579,135.765276
神明,35.002499,135.762027
水銀屋,35.002995,135.759549
杉蛭子,34.999622,135.749841
杉屋,34.998932,135.763306
朱雀内畑,34.988216,135.741891
朱雀裏畑,34.988366,135.740049
朱雀北ノ口,34.989386,135.740286
朱雀正会,34.990289,135.743741
朱雀堂ノ口,34.990295,135.742283
朱雀分木,34.992716,135.741004
朱雀宝蔵,34.985436,135.754381
筋屋,35.000649,135.764743
須浜,34.998249,135.766182
住吉,34.990021,135.764141
諏訪開,34.990979,135.746867
瀬戸屋,35.001896,135.750461
銭屋,34.994391,135.757529
泉正寺,35.000099,135.763396
泉水,34.995836,135.752657
善長寺,35.002400,135.757389
船頭,35.002850,135.770115
大工,34.993100,135.764744
大黒,35.001355,135.766082
醍醐,34.996350,135.758991
太子山,35.000689,135.753683
大寿,35.003060,135.766250
松明,34.985998,135.752730
高雄,34.990344,135.754935
高材木,35.002921,135.762633
高砂,34.997056,135.758863
高槻,34.992801,135.760303
高辻猪熊,34.999592,135.750545
高辻大宮,34.999430,135.749138
高辻,34.999508,135.758148
高辻西洞院,34.999511,135.755196
高辻堀川,34.999615,135.751876
高橋,35.000758,135.761282
高宮,34.992532,135.766076
竹屋,35.002067,135.761915
竹屋之,35.002415,135.760275
立売中之,35.003524,135.763289
立売西,35.003682,135.761841
立売東,35.003629,135.764792
橘,34.990217,135.760501
立中,35.003698,135.749871
辰巳,34.989928,135.756823
足袋屋,35.002526,135.766228
玉津島,34.998886,135.758766
玉本,34.990946,135.753818
玉屋,34.997042,135.760302
溜池,34.991970,135.764744
樽屋,34.988297,135.750771
俵屋,35.002016,135.765604
丹波街道,34.994043,135.748361
茶磨屋,35.000164,135.766552
忠庵,34.998237,135.764028
中堂寺粟田,34.995056,135.737601
中堂寺鍵田,34.994610,135.745252
中堂寺北,34.997444,135.741139
中堂寺櫛笥,34.996897,135.746983
中堂寺庄ノ内,34.997426,135.737870
中堂寺西寺,34.998106,135.747014
中堂寺坊城,34.995654,135.743515
中堂寺前田,34.995117,135.746797
中堂寺前,34.994840,135.749005
中堂寺南,34.995099,135.740934
中堂寺壬生川,34.996377,135.745239
中堂寺命婦,34.998071,135.744314
中堂寺薮ノ内,34.995306,135.747865
突抜,34.993192,135.748404
月鉾,35.003748,135.757389
月見,34.997649,135.755737
土橋,34.988976,135.753343
槌屋,35.000565,135.750546
筒金,34.991837,135.761119
葛籠屋,34.999672,135.762602
貞安前之,35.002957,135.767697
徹宝,34.988281,135.750003
天使突抜,34.998120,135.754406
天神,34.992797,135.761827
天神前,34.998849,135.754542
天王,35.001230,135.769887
天満,35.000501,135.768740
都市,34.994877,135.767332
童侍者,35.002495,135.758865
燈籠,34.999535,135.761094
常葉,34.991412,135.758570
木賊山,35.001248,135.754313
徳正寺,35.003031,135.764853
徳万,34.998127,135.757431
徳屋,35.000674,135.751224
富田,34.992803,135.761072
富永,35.000166,135.751300
富浜,34.992457,135.765629
富松,34.992143,135.765927
富屋,34.994485,135.762732
中居,34.989539,135.758920
中金仏,34.995868,135.753616
永倉,34.998050,135.754968
中之,35.001932,135.767092
中野之,34.999050,135.757353
永原,35.002098,135.763994
長刀切,34.997646,135.757975
長刀鉾,35.003723,135.760370
鍋屋,35.000644,135.765542
納屋,34.990028,135.764758
奈良物,35.003643,135.766023
難波,34.998252,135.767624
匂天神,35.000581,135.760134
西油小路,34.985918,135.753519
西綾小路西半,35.002440,135.752780
西綾小路東半,35.002415,135.753379
西魚屋,34.993964,135.757675
西錺屋,34.996467,135.755817
西側,34.993419,135.754954
西境,34.989125,135.757769
西七条赤社,34.995056,135.735621
西七条石井,34.987216,135.734727
西七条市部,34.991007,135.734564
西七条御前田,34.994967,135.733583
西七条掛越,34.993044,135.731861
西七条北衣田,34.989917,135.731841
西七条北月読,34.989727,135.729877
西七条北西野,34.989760,135.733834
西七条北東野,34.989766,135.737690
西七条御領,34.991083,135.737716
西七条中野,34.989776,135.735475
西七条名倉,34.991221,135.729943
西七条西石ケ坪,34.993121,135.733807
西七条西久保,34.987132,135.737568
西七条西八反田,34.992888,135.737055
西七条東石ケ坪,34.993049,135.735563
西七条東御前田,34.995064,135.734607
西七条東久保,34.987236,135.739867
西七条東八反田,34.992824,135.738372
西七条比輪田,34.991289,135.731891
西七条南衣田,34.988472,135.731919
西七条南月読,34.988527,135.729511
西七条南中野,34.988660,135.735273
西七条南西野,34.988464,135.733840
西七条南東野,34.988479,135.737656
西七条八幡,34.992923,135.729948
西新屋敷揚屋,34.991980,135.743297
西新屋敷上之,34.991984,135.744753
西新屋敷下之,34.993095,135.743263
西新屋敷太夫,34.991969,135.744062
西新屋敷中堂寺,34.993097,135.744039
西新屋敷中之,34.993113,135.744699
西酢屋,34.989741,135.746818
西高辻,35.000132,135.752696
西田,35.001276,135.749998
西玉水,34.990347,135.761615
西之,34.985218,135.763932
西洞院,34.992105,135.755183
西橋詰,34.996708,135.767091
西前,35.001652,135.762542
西松屋,34.992789,135.755624
西門前,34.997834,135.749440
西八百屋,34.989290,135.751340
廿人講,34.991290,135.760998
二帖半敷,35.001916,135.759563
西若松,34.993408,135.753815
二人司,34.992064,135.746108
鶏鉾,35.003042,135.757983
塗師屋,35.001950,135.764794
布屋,34.997033,135.755950
白楽天,35.001933,135.758233
橋橘,34.998190,135.752309
橋詰,34.993764,135.761070
波止土濃,34.993450,135.766712
橋本,35.003760,135.770747
八王子,34.990970,135.765265
八軒,34.992440,135.763714
八条坊門,34.986601,135.749861
八文字,35.002942,135.765600
花園,34.989843,135.752301
花畑,34.989483,135.748210
花屋,34.992731,135.753473
早尾,34.993485,135.766483
繁昌,35.000144,135.757520
坂東屋,34.996978,135.758120
東油小路,34.986184,135.754520
東魚屋,34.993991,135.758397
東錺屋,34.996301,135.757406
東側,34.993566,135.755381
東境,34.989046,135.759001
東塩小路釜殿,34.984936,135.757690
東塩小路高倉,34.985141,135.761221
東塩小路,34.987182,135.758744
東塩小路向畑,34.986816,135.762520
東大工,34.988208,135.754712
東玉水,34.990907,135.763204
東,34.988559,135.754859
東之,34.984909,135.765504
東前,35.001505,135.763533
東松屋,34.992866,135.756184
東若松,34.992145,135.756737
樋口,34.998214,135.753729
菱屋,34.989741,135.753382
毘沙門,34.995732,135.755953
樋之下,34.998339,135.762233
平居,34.994899,135.765993
平岡,34.992171,135.766693
平野,34.990957,135.756823
平屋,34.996545,135.754778
深草,34.997093,135.761044
福島,34.995485,135.761052
福田寺,34.997997,135.762011
福本,34.989816,135.755244
藤本寄,35.003828,135.753386
仏具屋,34.993733,135.760334
仏光寺西,35.001548,135.761718
仏光寺東,35.001343,135.764775
舟屋,34.999440,135.754436
船鉾,35.001905,135.756768
麓,34.999505,135.753642
古御旅,34.985472,135.750234
弁財天,34.998250,135.758860
坊門,35.000480,135.748317
坊門中之,34.986434,135.750208
卜味金仏,34.994687,135.753604
骨屋,34.994034,135.762939
堀詰,34.989783,135.761783
堀之内,35.000068,135.755942
堀之上,34.994083,135.749320
本覚寺前,34.996075,135.765515
本燈籠,34.998957,135.761976
本柳水,35.000679,135.755182
真苧屋,34.989107,135.760401
升屋,34.993703,135.762575
桝屋,34.999643,135.766204
松川,34.998908,135.767590
松原中之,34.998922,135.764763
松本,34.987278,135.751629
松屋,34.996317,135.760399
万里小路,35.000661,135.764100
丸屋,34.990937,135.753367
万寿寺,34.996301,135.761829
万寿寺中之,34.997622,135.761906
御影堂,34.995510,135.766396
御影,34.999418,135.756674
御影堂前,34.996102,135.766565
御方紺屋,34.987321,135.752563
南夷,34.985827,135.750817
南京極,34.994396,135.766226
南,34.987749,135.754518
南橋詰,34.995518,135.767144
南不動堂,34.986864,135.754145
南門前,34.996044,135.749408
南八百屋,34.988400,135.751532
美濃屋,34.999377,135.768974
妙伝寺,35.003024,135.755086
妙満寺,35.002432,135.751266
元悪王子,35.002961,135.761070
本上神明,34.998127,135.764741
本塩竈,34.994497,135.764366
本神明,34.997050,135.764568
元両替,34.998235,135.758191
紅葉,34.990955,135.754485
文覚,34.989878,135.754484
門前,34.991754,135.751332
八百屋,34.995523,135.755436
屋形,34.983782,135.767410
薬園,34.992860,135.746357
薬師前,34.999506,135.759440
矢田,35.002340,135.755917
八ツ柳,34.993397,135.767113
柳,34.992095,135.754428
藪下,34.998863,135.755940
藪之内,34.995129,135.748566
山川,34.992683,135.754883
八幡,34.997153,135.755165
夕顔,34.999568,135.763317
要法寺,35.001800,135.752775
横諏訪,34.995500,135.758846
吉水,34.998254,135.760298
万屋,34.991333,135.764323
来迎堂,34.998987,135.751010
若松,34.992749,135.762584
若宮,34.988942,135.766300
和気,34.988490,135.747452
