name,latitude,longitude
富山県,南砺市
相倉,36.430688,136.914051
赤坂,36.527052,136.882979
安室,36.588195,136.950494
遊部,36.569130,136.883969
遊部川原,36.569545,136.879225
新屋,36.386028,136.883855
天池,36.536936,136.886653
天池出,36.531029,136.856590
雨潜,36.569660,136.931866
荒木,36.554572,136.881619
荒見崎,36.556847,136.897720
在房,36.568969,136.909919
池田,36.540772,136.939206
池尻,36.548098,136.928607
石田,36.570144,136.922442
和泉,36.575803,136.877068
泉沢,36.503557,136.897471
院瀬見,36.540436,136.948506
糸谷新,36.520657,136.822613
井波,36.564027,136.976725
井波軸屋,36.585493,136.942895
井波外二ケ村入会地,36.554400,136.976565
井波外四ケ村入会地,36.549274,136.983458
井波外五ケ村入会地,36.555965,136.984902
井口,36.538847,136.924930
猪谷,36.383727,136.924243
今里,36.558356,136.954152
入谷,36.451292,136.988963
岩木,36.585886,136.872198
岩武新,36.608309,136.920733
岩屋,36.580358,136.960738
岩安,36.590207,136.880772
院林,36.586554,136.907103
上田,36.456726,136.888151
上野,36.595301,136.942122
臼中,36.458464,136.850690
打尾,36.496626,136.902046
打越,36.356087,136.835467
梅ケ島,36.584678,136.898347
梅野,36.541553,136.903521
梅原,36.561450,136.901664
漆谷,36.402718,136.868447
上見,36.494046,136.883373
江田,36.565675,136.927637
大崩島,36.460570,136.982524
大窪,36.533980,136.897458
大島,36.410611,136.953439
大谷,36.541701,136.974023
大塚,36.538479,136.892095
大寺,36.529855,136.967189
大西,36.522622,136.878544
大宮野,36.509784,136.904275
大宮野新,36.510655,136.890930
大鋸屋,36.479339,136.898011
沖,36.552753,136.948105
小瀬,36.419008,136.873500
小原,36.384739,136.909380
小又,36.565337,136.814880
開発,36.555110,136.860415
皆葎,36.404885,136.920801
篭渡,36.413652,136.967508
桂,36.324808,136.813777
金戸,36.515858,136.893838
上川崎,36.597416,136.896107
上平細島,36.392363,136.896107
上中田,36.390908,136.883238
上梨,36.419924,136.912506
上原,36.493355,136.873058
上広安,36.544712,136.920076
上松尾,36.448350,136.956424
上三日市,36.588150,136.917126
川上中,36.526871,136.939603
川西,36.577201,136.859621
川除新,36.602894,136.943835
川原崎,36.555361,136.955322
北市,36.562400,136.947066
北川,36.569883,136.971766
北野,36.525487,136.921641
経塚野,36.517785,136.883471
桐木,36.581394,136.884694
国広,36.520803,136.886658
久保,36.547488,136.935274
蔵原,36.585659,136.833956
来栖,36.435305,136.936424
小院瀬見,36.493526,136.817435
香城寺,36.527720,136.821814
楮,36.363151,136.889543
小来栖,36.442101,136.940820
小坂,36.539058,136.858509
小林,36.548512,136.881438
小二又,36.512485,136.833246
小山,36.548177,136.835612
五領,36.559397,136.959899
是安,36.526477,136.903482
才川七,36.512235,136.810780
西明,36.503054,136.939401
坂本,36.558606,136.839512
三清東,36.557234,136.940633
志観寺,36.555022,136.970424
寺家,36.583525,136.914127
寺家新屋敷,36.592537,136.915449
下島,36.394137,136.870263
下野,36.549786,136.888114
一日市,36.558096,136.891031
柴田屋,36.595293,136.908526
清水明,36.588858,136.961533
示野,36.511287,136.891293
下出,36.400457,136.973164
下梨,36.443126,136.963100
下吉江,36.575699,136.897357
蛇喰,36.535822,136.938314
城,36.475613,136.974295
障子倉,36.483985,136.976119
上津,36.605475,136.904592
城端,36.513478,136.900353
神宮寺,36.547848,136.884706
新邸,36.568500,136.894250
菅沼,36.399578,136.886868
寿川,36.458708,136.993063
杉尾,36.474569,136.958839
杉谷,36.548348,137.002189
砂子谷,36.594815,136.810323
清玄寺,36.549918,136.964673
瀬戸,36.476909,136.883311
専勝寺,36.592873,136.953320
千福,36.510410,136.884991
千福新,36.510692,136.889083
祖谷,36.534806,136.817768
祖山,36.482067,136.993927
高儀,36.601203,136.931803
高窪,36.597618,136.795143
高瀬,36.570510,136.949109
高草嶺,36.444875,136.990496
高堀,36.599930,136.946107
高宮,36.545521,136.873123
高屋,36.595946,136.956449
竹内,36.549112,136.856918
竹林,36.546586,136.891793
田尻,36.455052,136.870592
田代,36.447809,136.945629
舘,36.541555,136.832932
立野原東,36.508794,136.877103
立野脇,36.482038,136.820032
田中,36.562067,136.888384
谷,36.553747,136.960383
田下,36.397072,136.881409
田向,36.380037,136.945854
田屋,36.559370,136.922354
長源寺,36.602476,136.939117
綱掛,36.489800,136.831401
坪野,36.572136,136.966015
出村,36.532563,136.881254
天神,36.547955,136.865361
戸板,36.561786,136.956125
東城寺,36.548082,136.957610
塔尾,36.499904,136.881035
刀利,36.422242,136.812155
利賀村,36.460692,137.020731
利賀村阿別当,36.404119,137.011847
利賀村新山,36.497112,136.974449
利賀村岩渕,36.447627,137.022042
利賀村上畠,36.435050,137.010435
利賀村大牧,36.502987,137.003506
利賀村大豆谷,36.467236,137.031869
利賀村押場,36.480491,137.019057
利賀村上百瀬,36.395283,137.037205
利賀村北島,36.448006,137.011827
利賀村北原,36.533558,136.997856
利賀村北豆谷,36.481609,137.036182
利賀村栗当,36.534596,137.023790
利賀村坂上,36.424051,137.010744
利賀村下原,36.535597,136.987451
利賀村仙野原,36.519209,137.015409
利賀村草嶺,36.493186,137.023109
利賀村大勘場,36.377459,136.992876
利賀村高沼,36.513287,137.027342
利賀村栃原,36.516701,136.979045
利賀村長崎,36.515863,136.998493
利賀村細島,36.444072,137.004914
利賀村水無,36.323698,136.987475
利賀村百瀬川,36.471745,137.051062
利屋,36.589957,136.945651
徳成,36.542980,136.912352
殿,36.535860,136.864216
利波河,36.542518,136.916810
渡原,36.467060,136.941373
土山,36.581130,136.802493
中尾,36.500034,136.887476
中ノ江,36.566020,136.863960
中畑,36.432392,136.932545
梨谷,36.452069,136.930379
夏焼,36.431654,136.986106
七曲,36.499219,136.857668
七村,36.592912,136.859245
成出,36.350148,136.882555
縄蔵,36.532323,136.885939
西赤尾,36.383420,136.851164
西原,36.492771,136.866267
年代,36.588825,136.937673
野口,36.507327,136.890712
苗島,36.586684,136.929784
野尻,36.604250,136.917388
野尻野,36.594534,136.935298
野新,36.580532,136.935236
野田,36.520175,136.898063
野能原,36.577525,136.949668
野原,36.571685,136.935830
信末,36.535559,136.908882
能美,36.573295,136.796739
八幡,36.566531,136.876009
土生,36.505589,136.810443
土生新,36.514567,136.858444
晩田,36.593038,136.897623
東赤尾,36.375467,136.891937
東石田,36.567390,136.924540
東中江,36.444844,136.971629
東西原,36.507993,136.945032
久戸,36.564373,136.910123
飛騨屋,36.583545,136.953448
人母,36.608376,136.805116
樋瀬戸,36.483020,136.844050
百,36.589695,136.931771
広谷,36.527482,136.841053
広安,36.567797,136.917156
福野,36.590669,136.923176
福野軸屋,36.583705,136.940426
福光,36.559973,136.867121
福光新,36.556865,136.871987
藤橋,36.558701,136.970385
二日,36.598257,136.921005
太美,36.501268,136.844328
太美舘,36.491692,136.844986
法林寺,36.569646,136.843141
細木,36.527501,136.893794
細野,36.509473,136.925481
布袋,36.579608,136.893612
本江,36.615048,136.913202
本,36.562036,136.970178
前田,36.589994,136.891659
真木,36.374355,136.876323
正谷,36.482455,136.930470
松島,36.558611,136.976306
松木,36.570281,136.874379
松原,36.595274,136.929344
松原新,36.589222,136.919393
見座,36.425323,136.939746
三ツ屋,36.582604,136.891464
蓑谷,36.498607,136.924632
宮後,36.547593,136.923466
葎島,36.409442,136.907101
森,36.576789,136.888942
森清,36.557546,136.933833
盛新,36.490595,136.890128
やかた,36.591108,136.917924
焼野,36.579245,136.941666
安居,36.596377,136.881731
安清,36.558068,136.928875
八塚,36.579087,136.923986
山下,36.563924,136.971413
山田,36.530848,136.890731
山斐,36.579018,136.967382
山見,36.561698,136.964271
山本,36.553051,136.828510
湯谷,36.578126,136.820864
吉江中,36.570882,136.890857
吉江野,36.539950,136.879981
吉見,36.478811,136.831805
嫁兼,36.503674,136.852817
理休,36.511174,136.908245
林道,36.476102,136.917623
連代寺,36.551587,136.966440
神成,36.560103,136.912860
宗守,36.556796,136.906474
高畠,36.554664,136.914734
東殿,36.549034,136.914168
鍛治,36.547512,136.904234
