name,latitude,longitude
山形県,最上郡戸沢村
岩清水,38.743858,140.196249
蔵岡,38.711294,140.180829
神田,38.786456,140.115472
角川,38.677013,140.111888
津谷,38.734578,140.194206
名高,38.753565,140.155832
古口,38.755467,140.089822
松坂,38.778546,140.191791
