name,latitude,longitude
熊本県,菊池郡菊陽町
辛川,32.842748,130.818494
久保田,32.860469,130.840055
津久礼,32.859336,130.807920
戸次,32.843212,130.855993
馬場楠,32.844195,130.841592
原水,32.879595,130.832579
曲手,32.838839,130.835214
沖野,32.867974,130.792898
向陽台,32.856407,130.752002
新山,32.865263,130.787422
杉並台,32.869525,130.786517
花立,32.858663,130.756551
光の森,32.859234,130.776859
武蔵ヶ丘,32.858863,130.774098
