name,latitude,longitude
熊本県,玉名郡長洲町
有明,32.916202,130.452364
梅田,32.939419,130.451565
折崎,32.926780,130.484716
上沖洲,32.910455,130.474229
清源寺,32.921328,130.464273
高浜,32.936231,130.459367
永塩,32.941138,130.473675
長洲,32.932220,130.446703
腹赤,32.921294,130.477220
姫ケ浦,32.914675,130.462997
宮野,32.939792,130.485982
名石浜,32.906866,130.465863
