name,latitude,longitude
熊本県,球磨郡湯前町
浅ケ野,32.288370,131.010705
植木,32.280635,130.970369
上猪,32.269276,131.027161
上里,32.278625,130.987401
上染田,32.282212,130.985018
上村,32.269022,130.979693
下城,32.286542,130.984627
下里,32.284177,130.975993
下染田,32.284186,130.980954
下村,32.263474,130.980479
瀬戸口,32.257543,130.972198
田上,32.268124,130.989767
中猪,32.275902,131.004722
中里,32.282246,130.977463
野中田,32.277841,130.991963
浜川,32.293426,130.996094
馬場,32.257872,130.982318
古城,32.284557,130.990524
