name,latitude,longitude
高知県,室戸市
浮津,33.297117,134.145466
浮津一番,33.290477,134.145432
浮津二番,33.292308,134.144740
浮津三番,33.293479,134.141760
吉良川,33.397345,134.148413
佐喜浜,33.419719,134.196429
羽根,33.410154,134.104197
室津,33.321967,134.162197
室戸岬,33.317251,134.181405
元,33.324070,134.137052
領家,33.290708,134.169814
